# 
# Header Description:
# 
# Version: v3.0.3.1 Platform: 11 Manufacturer: OnePlus Model: HD1901
# 
# Raw,utcTimeMillis,TimeNanos,LeapSecond,TimeUncertaintyNanos,FullBiasNanos,BiasNanos,BiasUncertaintyNanos,DriftNanosPerSecond,DriftUncertaintyNanosPerSecond,HardwareClockDiscontinuityCount,Svid,TimeOffsetNanos,State,ReceivedSvTimeNanos,ReceivedSvTimeUncertaintyNanos,Cn0DbHz,PseudorangeRateMetersPerSecond,PseudorangeRateUncertaintyMetersPerSecond,AccumulatedDeltaRangeState,AccumulatedDeltaRangeMeters,AccumulatedDeltaRangeUncertaintyMeters,CarrierFrequencyHz,CarrierCycles,CarrierPhase,CarrierPhaseUncertainty,MultipathIndicator,SnrInDb,ConstellationType,AgcDb,BasebandCn0DbHz,FullInterSignalBiasNanos,FullInterSignalBiasUncertaintyNanos,SatelliteInterSignalBiasNanos,SatelliteInterSignalBiasUncertaintyNanos,CodeType,ChipsetElapsedRealtimeNanos
# 
# UncalAccel,utcTimeMillis,elapsedRealtimeNanos,UncalAccelXMps2,UncalAccelYMps2,UncalAccelZMps2,BiasXMps2,BiasYMps2,BiasZMps2
# 
# UncalGyro,utcTimeMillis,elapsedRealtimeNanos,UncalGyroXRadPerSec,UncalGyroYRadPerSec,UncalGyroZRadPerSec,DriftXRadPerSec,DriftYRadPerSec,DriftZRadPerSec
# 
# UncalMag,utcTimeMillis,elapsedRealtimeNanos,UncalMagXMicroT,UncalMagYMicroT,UncalMagZMicroT,BiasXMicroT,BiasYMicroT,BiasZMicroT
# 
# OrientationDeg,utcTimeMillis,elapsedRealtimeNanos,yawDeg,rollDeg,pitchDeg
# 
# Fix,Provider,LatitudeDegrees,LongitudeDegrees,AltitudeMeters,SpeedMps,AccuracyMeters,BearingDegrees,UnixTimeMillis,SpeedAccuracyMps,BearingAccuracyDegrees,elapsedRealtimeNanos
# 
# Nav,Svid,Type,Status,MessageId,Sub-messageId,Data(Bytes)
# 
# Status,UnixTimeMillis,SignalCount,SignalIndex,ConstellationType,Svid,CarrierFrequencyHz,Cn0DbHz,AzimuthDegrees,ElevationDegrees,UsedInFix,HasAlmanacData,HasEphemerisData,BasebandCn0DbHz
# 
Status,0,47,0,1,12,1575420032,18.00,174.00,12.00,0,1,0,18.0
Status,0,47,1,1,13,1575420032,16.30,68.00,35.00,0,1,0,16.3
Status,0,47,2,1,15,1575420032,17.30,112.00,66.00,0,1,0,17.3
Status,0,47,3,1,2,1575420032,0.00,84.00,14.00,0,1,0,0.0
Status,0,47,4,1,5,1575420032,0.00,30.00,25.00,0,1,0,0.0
Status,0,47,5,1,10,1575420032,0.00,240.00,14.00,0,1,0,0.0
Status,0,47,6,1,18,1575420032,0.00,326.00,30.00,0,1,0,0.0
Status,0,47,7,1,20,1575420032,0.00,46.00,3.00,0,1,0,0.0
Status,0,47,8,1,23,1575420032,0.00,260.00,39.00,0,1,0,0.0
Status,0,47,9,1,24,1575420032,0.00,156.00,9.00,0,1,0,0.0
Status,0,47,10,1,25,1575420032,0.00,213.00,30.00,0,1,0,0.0
Status,0,47,11,1,26,1575420032,0.00,300.00,5.00,0,1,0,0.0
Status,0,47,12,1,29,1575420032,0.00,352.00,73.00,0,1,0,0.0
Status,0,47,13,3,14,1598062464,0.00,0.00,0.00,0,1,0,0.0
Status,0,47,14,3,2,1599750016,0.00,205.00,18.00,0,1,0,0.0
Status,0,47,15,3,22,1600312448,0.00,97.00,26.00,0,1,0,0.0
Status,0,47,16,3,13,1600875008,0.00,236.00,5.00,0,1,0,0.0
Status,0,47,17,3,1,1602562560,0.00,215.00,78.00,0,1,0,0.0
Status,0,47,18,3,24,1603124992,0.00,334.00,16.00,0,1,0,0.0
Status,0,47,19,3,23,1603687552,0.00,18.00,42.00,0,1,0,0.0
Status,0,47,20,3,7,1604812544,0.00,0.00,0.00,0,1,0,0.0
Status,0,47,21,3,8,1605374976,0.00,25.00,46.00,0,1,0,0.0
Status,0,47,22,5,16,1561097984,20.40,120.00,37.00,0,1,0,20.4
Status,0,47,23,5,9,1561097984,19.10,144.00,33.00,0,1,0,19.1
Status,0,47,24,5,1,1561097984,0.00,95.00,14.00,0,1,0,0.0
Status,0,47,25,5,2,1561097984,0.00,158.00,69.00,0,1,0,0.0
Status,0,47,26,5,3,1561097984,0.00,112.00,48.00,0,1,0,0.0
Status,0,47,27,5,5,1561097984,0.00,230.00,59.00,0,1,0,0.0
Status,0,47,28,5,6,1561097984,0.00,127.00,37.00,0,1,0,0.0
Status,0,47,29,5,7,1561097984,0.00,163.00,24.00,0,1,0,0.0
Status,0,47,30,5,8,1561097984,0.00,29.00,30.00,0,1,0,0.0
Status,0,47,31,5,10,1561097984,0.00,174.00,35.00,0,1,0,0.0
Status,0,47,32,5,12,1561097984,0.00,319.00,5.00,0,1,0,0.0
Status,0,47,33,5,13,1561097984,0.00,14.00,40.00,0,1,0,0.0
Status,0,47,34,5,19,1561097984,0.00,30.00,41.00,0,1,0,0.0
Status,0,47,35,5,21,1561097984,0.00,222.00,25.00,0,1,0,0.0
Status,0,47,36,5,22,1561097984,0.00,253.00,78.00,0,1,0,0.0
Status,0,47,37,5,26,1561097984,0.00,233.00,4.00,0,1,0,0.0
Status,0,47,38,4,195,1575420032,0.00,104.00,28.00,0,1,0,0.0
Status,0,47,39,6,4,1575420032,0.00,201.00,17.00,0,1,0,0.0
Status,0,47,40,6,7,1575420032,0.00,0.00,0.00,0,1,0,0.0
Status,0,47,41,6,12,1575420032,0.00,323.00,25.00,0,1,0,0.0
Status,0,47,42,6,19,1575420032,0.00,147.00,63.00,0,1,0,0.0
Status,0,47,43,6,24,1575420032,0.00,291.00,13.00,0,1,0,0.0
Status,0,47,44,6,26,1575420032,0.00,80.00,23.00,0,1,0,0.0
Status,0,47,45,6,31,1575420032,0.00,243.00,28.00,0,1,0,0.0
Status,0,47,46,6,33,1575420032,0.00,25.00,44.00,0,1,0,0.0
Raw,1651496096436,414628292000000,,,-1335116686144921080,0.43143510818481445,1259.0889818966389,-85.53633601496811,45.029476404090374,29,12,0.0,16399,132914354726004,106,18.0,544.5729370117188,6.627500534057617,16,0.0,0.0,1.57542003E9,,,,0,,1,-0.34,14.4,0.0,0.0,,,C,
Raw,1651496096436,414628292000000,,,-1335116686144921080,0.43143510818481445,1259.0889818966389,-85.53633601496811,45.029476404090374,29,13,0.0,16399,132914363397968,139,16.3,144.12843322753906,6.1010003089904785,16,0.0,0.0,1.57542003E9,,,,0,,1,-0.34,12.700000000000001,0.0,0.0,,,C,
Raw,1651496096436,414628292000000,,,-1335116686144921080,0.43143510818481445,1259.0889818966389,-85.53633601496811,45.029476404090374,29,15,0.0,16399,132914368935176,122,17.3,-165.4318084716797,8.238500595092773,16,0.0,0.0,1.57542003E9,,,,0,,1,-0.34,13.700000000000001,0.0,0.0,,,C,
Fix,FLP,17.4070128,78.5195725,437.699982,0.018720,21.832001,75.123451,1651496094921,0.0,0.0,79530720000000,1.1707563
Fix,NLP,17.4070127,78.5195726,437.699982,0.000000,20.000000,0.000000,1651496094921,0.0,0.0,79530720000000,1.1707563
Status,0,47,0,1,12,1575420032,18.00,174.00,12.00,0,1,0,18.0
Status,0,47,1,1,13,1575420032,16.30,68.00,35.00,0,1,0,16.3
Status,0,47,2,1,15,1575420032,21.90,112.00,66.00,0,1,0,21.9
Status,0,47,3,1,2,1575420032,0.00,84.00,14.00,0,1,0,0.0
Status,0,47,4,1,5,1575420032,0.00,30.00,25.00,0,1,0,0.0
Status,0,47,5,1,10,1575420032,0.00,240.00,14.00,0,1,0,0.0
Status,0,47,6,1,18,1575420032,0.00,326.00,30.00,0,1,0,0.0
Status,0,47,7,1,20,1575420032,0.00,46.00,3.00,0,1,0,0.0
Status,0,47,8,1,23,1575420032,0.00,260.00,39.00,0,1,0,0.0
Status,0,47,9,1,24,1575420032,0.00,156.00,9.00,0,1,0,0.0
Status,0,47,10,1,25,1575420032,0.00,213.00,30.00,0,1,0,0.0
Status,0,47,11,1,26,1575420032,0.00,300.00,5.00,0,1,0,0.0
Status,0,47,12,1,29,1575420032,0.00,352.00,73.00,0,1,0,0.0
Status,0,47,13,3,14,1598062464,0.00,0.00,0.00,0,1,0,0.0
Status,0,47,14,3,2,1599750016,0.00,205.00,18.00,0,1,0,0.0
Status,0,47,15,3,22,1600312448,0.00,97.00,26.00,0,1,0,0.0
Status,0,47,16,3,13,1600875008,0.00,236.00,5.00,0,1,0,0.0
Status,0,47,17,3,1,1602562560,0.00,215.00,78.00,0,1,0,0.0
Status,0,47,18,3,24,1603124992,0.00,334.00,16.00,0,1,0,0.0
Status,0,47,19,3,23,1603687552,0.00,18.00,42.00,0,1,0,0.0
Status,0,47,20,3,7,1604812544,0.00,0.00,0.00,0,1,0,0.0
Status,0,47,21,3,8,1605374976,0.00,25.00,46.00,0,1,0,0.0
Status,0,47,22,5,16,1561097984,20.40,120.00,37.00,0,1,0,20.4
Status,0,47,23,5,9,1561097984,19.10,144.00,33.00,0,1,0,19.1
Status,0,47,24,5,1,1561097984,0.00,95.00,14.00,0,1,0,0.0
Status,0,47,25,5,2,1561097984,0.00,158.00,69.00,0,1,0,0.0
Status,0,47,26,5,3,1561097984,0.00,112.00,48.00,0,1,0,0.0
Status,0,47,27,5,5,1561097984,0.00,230.00,59.00,0,1,0,0.0
Status,0,47,28,5,6,1561097984,0.00,127.00,37.00,0,1,0,0.0
Status,0,47,29,5,7,1561097984,0.00,163.00,24.00,0,1,0,0.0
Status,0,47,30,5,8,1561097984,0.00,29.00,30.00,0,1,0,0.0
Status,0,47,31,5,10,1561097984,0.00,174.00,35.00,0,1,0,0.0
Status,0,47,32,5,12,1561097984,0.00,319.00,5.00,0,1,0,0.0
Status,0,47,33,5,13,1561097984,0.00,14.00,40.00,0,1,0,0.0
Status,0,47,34,5,19,1561097984,0.00,30.00,41.00,0,1,0,0.0
Status,0,47,35,5,21,1561097984,0.00,222.00,25.00,0,1,0,0.0
Status,0,47,36,5,22,1561097984,0.00,253.00,78.00,0,1,0,0.0
Status,0,47,37,5,26,1561097984,0.00,233.00,4.00,0,1,0,0.0
Status,0,47,38,4,195,1575420032,0.00,104.00,28.00,0,1,0,0.0
Status,0,47,39,6,4,1575420032,0.00,201.00,17.00,0,1,0,0.0
Status,0,47,40,6,7,1575420032,0.00,0.00,0.00,0,1,0,0.0
Status,0,47,41,6,12,1575420032,0.00,323.00,25.00,0,1,0,0.0
Status,0,47,42,6,19,1575420032,0.00,147.00,64.00,0,1,0,0.0
Status,0,47,43,6,24,1575420032,0.00,291.00,13.00,0,1,0,0.0
Status,0,47,44,6,26,1575420032,0.00,80.00,23.00,0,1,0,0.0
Status,0,47,45,6,31,1575420032,0.00,243.00,28.00,0,1,0,0.0
Status,0,47,46,6,33,1575420032,0.00,25.00,44.00,0,1,0,0.0
Raw,1651496097436,414629292000000,,,-1335116686144921152,0.32471609115600586,1119.7536950930953,-84.78692255638265,43.97845824131721,29,15,0.0,16399,132915368935737,61,21.9,-166.1168670654297,1.088499903678894,16,0.0,0.0,1.57542003E9,,,,0,,1,-0.3,18.299999999999997,0.0,0.0,,,C,
Status,0,47,0,1,12,1575420032,18.00,174.00,12.00,0,1,0,18.0
Status,0,47,1,1,13,1575420032,16.30,68.00,35.00,0,1,0,16.3
Status,0,47,2,1,15,1575420032,21.50,112.00,66.00,0,1,0,21.5
Status,0,47,3,1,2,1575420032,0.00,84.00,14.00,0,1,0,0.0
Status,0,47,4,1,5,1575420032,0.00,30.00,25.00,0,1,0,0.0
Status,0,47,5,1,10,1575420032,0.00,240.00,14.00,0,1,0,0.0
Status,0,47,6,1,18,1575420032,0.00,326.00,30.00,0,1,0,0.0
Status,0,47,7,1,20,1575420032,0.00,46.00,3.00,0,1,0,0.0
Status,0,47,8,1,23,1575420032,0.00,260.00,39.00,0,1,0,0.0
Status,0,47,9,1,24,1575420032,0.00,156.00,9.00,0,1,0,0.0
Status,0,47,10,1,25,1575420032,0.00,213.00,30.00,0,1,0,0.0
Status,0,47,11,1,26,1575420032,0.00,300.00,5.00,0,1,0,0.0
Status,0,47,12,1,29,1575420032,0.00,352.00,73.00,0,1,0,0.0
Status,0,47,13,3,14,1598062464,0.00,0.00,0.00,0,1,0,0.0
Status,0,47,14,3,2,1599750016,0.00,205.00,18.00,0,1,0,0.0
Status,0,47,15,3,22,1600312448,0.00,97.00,26.00,0,1,0,0.0
Status,0,47,16,3,13,1600875008,0.00,236.00,5.00,0,1,0,0.0
Status,0,47,17,3,1,1602562560,0.00,215.00,78.00,0,1,0,0.0
Status,0,47,18,3,24,1603124992,0.00,334.00,16.00,0,1,0,0.0
Status,0,47,19,3,23,1603687552,0.00,18.00,42.00,0,1,0,0.0
Status,0,47,20,3,7,1604812544,0.00,0.00,0.00,0,1,0,0.0
Status,0,47,21,3,8,1605374976,0.00,25.00,46.00,0,1,0,0.0
Status,0,47,22,5,16,1561097984,20.40,120.00,37.00,0,1,0,20.4
Status,0,47,23,5,9,1561097984,19.10,144.00,33.00,0,1,0,19.1
Status,0,47,24,5,1,1561097984,0.00,95.00,14.00,0,1,0,0.0
Status,0,47,25,5,2,1561097984,0.00,158.00,69.00,0,1,0,0.0
Status,0,47,26,5,3,1561097984,0.00,112.00,48.00,0,1,0,0.0
Status,0,47,27,5,5,1561097984,0.00,230.00,59.00,0,1,0,0.0
Status,0,47,28,5,6,1561097984,0.00,127.00,37.00,0,1,0,0.0
Status,0,47,29,5,7,1561097984,0.00,163.00,24.00,0,1,0,0.0
Status,0,47,30,5,8,1561097984,0.00,29.00,30.00,0,1,0,0.0
Status,0,47,31,5,10,1561097984,0.00,174.00,35.00,0,1,0,0.0
Status,0,47,32,5,12,1561097984,0.00,319.00,5.00,0,1,0,0.0
Status,0,47,33,5,13,1561097984,0.00,14.00,40.00,0,1,0,0.0
Status,0,47,34,5,19,1561097984,0.00,30.00,41.00,0,1,0,0.0
Status,0,47,35,5,21,1561097984,0.00,222.00,25.00,0,1,0,0.0
Status,0,47,36,5,22,1561097984,0.00,253.00,78.00,0,1,0,0.0
Status,0,47,37,5,26,1561097984,0.00,233.00,4.00,0,1,0,0.0
Status,0,47,38,4,195,1575420032,0.00,104.00,28.00,0,1,0,0.0
Status,0,47,39,6,4,1575420032,0.00,201.00,17.00,0,1,0,0.0
Status,0,47,40,6,7,1575420032,0.00,0.00,0.00,0,1,0,0.0
Status,0,47,41,6,12,1575420032,0.00,323.00,25.00,0,1,0,0.0
Status,0,47,42,6,19,1575420032,0.00,147.00,64.00,0,1,0,0.0
Status,0,47,43,6,24,1575420032,0.00,291.00,13.00,0,1,0,0.0
Status,0,47,44,6,26,1575420032,0.00,80.00,23.00,0,1,0,0.0
Status,0,47,45,6,31,1575420032,0.00,243.00,28.00,0,1,0,0.0
Status,0,47,46,6,33,1575420032,0.00,25.00,44.00,0,1,0,0.0
Raw,1651496098436,414630292000000,,,-1335116686144921251,0.05318021774291992,794.8364946059883,-89.20358912991956,30.406046142619196,29,15,0.0,16399,132916368936335,70,21.5,-166.1644287109375,1.088499903678894,16,0.0,0.0,1.57542003E9,,,,0,,1,-0.49,17.9,0.0,0.0,,,C,
Status,0,47,0,1,12,1575420032,18.00,174.00,12.00,0,1,0,18.0
Status,0,47,1,1,13,1575420032,16.30,68.00,35.00,0,1,0,16.3
Status,0,47,2,1,15,1575420032,21.40,112.00,66.00,0,1,0,21.4
Status,0,47,3,1,2,1575420032,0.00,84.00,14.00,0,1,0,0.0
Status,0,47,4,1,5,1575420032,0.00,30.00,25.00,0,1,0,0.0
Status,0,47,5,1,10,1575420032,0.00,240.00,14.00,0,1,0,0.0
Status,0,47,6,1,18,1575420032,0.00,326.00,30.00,0,1,0,0.0
Status,0,47,7,1,20,1575420032,0.00,46.00,3.00,0,1,0,0.0
Status,0,47,8,1,23,1575420032,0.00,260.00,39.00,0,1,0,0.0
Status,0,47,9,1,24,1575420032,0.00,156.00,9.00,0,1,0,0.0
Status,0,47,10,1,25,1575420032,0.00,213.00,30.00,0,1,0,0.0
Status,0,47,11,1,26,1575420032,0.00,300.00,5.00,0,1,0,0.0
Status,0,47,12,1,29,1575420032,0.00,352.00,73.00,0,1,0,0.0
Status,0,47,13,3,14,1598062464,0.00,0.00,0.00,0,1,0,0.0
Status,0,47,14,3,2,1599750016,0.00,205.00,18.00,0,1,0,0.0
Status,0,47,15,3,22,1600312448,0.00,97.00,26.00,0,1,0,0.0
Status,0,47,16,3,13,1600875008,0.00,236.00,5.00,0,1,0,0.0
Status,0,47,17,3,1,1602562560,0.00,215.00,78.00,0,1,0,0.0
Status,0,47,18,3,24,1603124992,0.00,334.00,16.00,0,1,0,0.0
Status,0,47,19,3,23,1603687552,0.00,18.00,42.00,0,1,0,0.0
Status,0,47,20,3,7,1604812544,0.00,0.00,0.00,0,1,0,0.0
Status,0,47,21,3,8,1605374976,0.00,25.00,46.00,0,1,0,0.0
Status,0,47,22,5,16,1561097984,20.40,120.00,37.00,0,1,0,20.4
Status,0,47,23,5,9,1561097984,19.10,144.00,33.00,0,1,0,19.1
Status,0,47,24,5,1,1561097984,0.00,95.00,14.00,0,1,0,0.0
Status,0,47,25,5,2,1561097984,0.00,158.00,69.00,0,1,0,0.0
Status,0,47,26,5,3,1561097984,0.00,112.00,48.00,0,1,0,0.0
Status,0,47,27,5,5,1561097984,0.00,230.00,59.00,0,1,0,0.0
Status,0,47,28,5,6,1561097984,0.00,127.00,37.00,0,1,0,0.0
Status,0,47,29,5,7,1561097984,0.00,163.00,24.00,0,1,0,0.0
Status,0,47,30,5,8,1561097984,0.00,29.00,30.00,0,1,0,0.0
Status,0,47,31,5,10,1561097984,0.00,174.00,35.00,0,1,0,0.0
Status,0,47,32,5,12,1561097984,0.00,319.00,5.00,0,1,0,0.0
Status,0,47,33,5,13,1561097984,0.00,14.00,40.00,0,1,0,0.0
Status,0,47,34,5,19,1561097984,0.00,30.00,41.00,0,1,0,0.0
Status,0,47,35,5,21,1561097984,0.00,222.00,25.00,0,1,0,0.0
Status,0,47,36,5,22,1561097984,0.00,253.00,78.00,0,1,0,0.0
Status,0,47,37,5,26,1561097984,0.00,233.00,4.00,0,1,0,0.0
Status,0,47,38,4,195,1575420032,0.00,104.00,28.00,0,1,0,0.0
Status,0,47,39,6,4,1575420032,0.00,201.00,17.00,0,1,0,0.0
Status,0,47,40,6,7,1575420032,0.00,0.00,0.00,0,1,0,0.0
Status,0,47,41,6,12,1575420032,0.00,323.00,25.00,0,1,0,0.0
Status,0,47,42,6,19,1575420032,0.00,147.00,64.00,0,1,0,0.0
Status,0,47,43,6,24,1575420032,0.00,291.00,13.00,0,1,0,0.0
Status,0,47,44,6,26,1575420032,0.00,80.00,23.00,0,1,0,0.0
Status,0,47,45,6,31,1575420032,0.00,243.00,28.00,0,1,0,0.0
Status,0,47,46,6,33,1575420032,0.00,25.00,44.00,0,1,0,0.0
Raw,1651496099436,414631292000000,,,-1335116686144921341,0.8175764083862305,889.6444924175739,-90.2292569864237,30.247699776054652,29,15,0.0,16399,132917368936610,70,21.4,-166.1168670654297,1.088499903678894,16,0.0,0.0,1.57542003E9,,,,0,,1,-0.56,17.799999999999997,0.0,0.0,,,C,
Status,0,47,0,1,12,1575420032,18.00,174.00,12.00,0,1,0,18.0
Status,0,47,1,1,13,1575420032,16.30,68.00,35.00,0,1,0,16.3
Status,0,47,2,1,15,1575420032,21.40,112.00,66.00,0,1,0,21.4
Status,0,47,3,1,2,1575420032,0.00,84.00,14.00,0,1,0,0.0
Status,0,47,4,1,5,1575420032,0.00,30.00,25.00,0,1,0,0.0
Status,0,47,5,1,10,1575420032,0.00,240.00,14.00,0,1,0,0.0
Status,0,47,6,1,18,1575420032,0.00,326.00,30.00,0,1,0,0.0
Status,0,47,7,1,20,1575420032,0.00,46.00,3.00,0,1,0,0.0
Status,0,47,8,1,23,1575420032,0.00,260.00,39.00,0,1,0,0.0
Status,0,47,9,1,24,1575420032,0.00,156.00,9.00,0,1,0,0.0
Status,0,47,10,1,25,1575420032,0.00,213.00,30.00,0,1,0,0.0
Status,0,47,11,1,26,1575420032,0.00,300.00,5.00,0,1,0,0.0
Status,0,47,12,1,29,1575420032,0.00,352.00,73.00,0,1,0,0.0
Status,0,47,13,3,14,1598062464,0.00,0.00,0.00,0,1,0,0.0
Status,0,47,14,3,2,1599750016,0.00,205.00,18.00,0,1,0,0.0
Status,0,47,15,3,22,1600312448,0.00,97.00,26.00,0,1,0,0.0
Status,0,47,16,3,13,1600875008,0.00,236.00,5.00,0,1,0,0.0
Status,0,47,17,3,1,1602562560,0.00,215.00,78.00,0,1,0,0.0
Status,0,47,18,3,24,1603124992,0.00,334.00,16.00,0,1,0,0.0
Status,0,47,19,3,23,1603687552,0.00,18.00,42.00,0,1,0,0.0
Status,0,47,20,3,7,1604812544,0.00,0.00,0.00,0,1,0,0.0
Status,0,47,21,3,8,1605374976,0.00,25.00,46.00,0,1,0,0.0
Status,0,47,22,5,16,1561097984,18.30,120.00,37.00,0,1,0,18.3
Status,0,47,23,5,9,1561097984,19.10,144.00,33.00,0,1,0,19.1
Status,0,47,24,5,1,1561097984,0.00,95.00,14.00,0,1,0,0.0
Status,0,47,25,5,2,1561097984,0.00,158.00,69.00,0,1,0,0.0
Status,0,47,26,5,3,1561097984,0.00,112.00,48.00,0,1,0,0.0
Status,0,47,27,5,5,1561097984,0.00,230.00,59.00,0,1,0,0.0
Status,0,47,28,5,6,1561097984,0.00,127.00,37.00,0,1,0,0.0
Status,0,47,29,5,7,1561097984,0.00,163.00,24.00,0,1,0,0.0
Status,0,47,30,5,8,1561097984,0.00,29.00,30.00,0,1,0,0.0
Status,0,47,31,5,10,1561097984,0.00,174.00,35.00,0,1,0,0.0
Status,0,47,32,5,12,1561097984,0.00,319.00,5.00,0,1,0,0.0
Status,0,47,33,5,13,1561097984,0.00,14.00,40.00,0,1,0,0.0
Status,0,47,34,5,19,1561097984,0.00,30.00,41.00,0,1,0,0.0
Status,0,47,35,5,21,1561097984,0.00,222.00,25.00,0,1,0,0.0
Status,0,47,36,5,22,1561097984,0.00,253.00,78.00,0,1,0,0.0
Status,0,47,37,5,26,1561097984,0.00,233.00,4.00,0,1,0,0.0
Status,0,47,38,4,195,1575420032,0.00,104.00,28.00,0,1,0,0.0
Status,0,47,39,6,4,1575420032,0.00,201.00,17.00,0,1,0,0.0
Status,0,47,40,6,7,1575420032,0.00,0.00,0.00,0,1,0,0.0
Status,0,47,41,6,12,1575420032,0.00,323.00,25.00,0,1,0,0.0
Status,0,47,42,6,19,1575420032,0.00,147.00,64.00,0,1,0,0.0
Status,0,47,43,6,24,1575420032,0.00,291.00,13.00,0,1,0,0.0
Status,0,47,44,6,26,1575420032,0.00,80.00,23.00,0,1,0,0.0
Status,0,47,45,6,31,1575420032,0.00,243.00,28.00,0,1,0,0.0
Status,0,47,46,6,33,1575420032,0.00,25.00,44.00,0,1,0,0.0
Raw,1651496100436,414632292000000,,,-1335116686144921435,0.21010398864746094,984.294805675745,-90.59453807166133,29.621964891623175,29,16,0.0,16399,132904310141249,106,18.3,-306.8215026855469,4.371500492095947,16,0.0,0.0,1.56109798E9,,,,0,,5,-7.31,14.0,-1508.636474609375,35.2180290222168,,,I,
Status,0,47,0,1,12,1575420032,18.00,174.00,12.00,0,1,0,18.0
Status,0,47,1,1,13,1575420032,16.30,68.00,35.00,0,1,0,16.3
Status,0,47,2,1,15,1575420032,20.40,112.00,66.00,0,1,0,20.4
Status,0,47,3,1,2,1575420032,0.00,84.00,14.00,0,1,0,0.0
Status,0,47,4,1,5,1575420032,0.00,30.00,25.00,0,1,0,0.0
Status,0,47,5,1,10,1575420032,0.00,240.00,14.00,0,1,0,0.0
Status,0,47,6,1,18,1575420032,0.00,326.00,30.00,0,1,0,0.0
Status,0,47,7,1,20,1575420032,0.00,46.00,3.00,0,1,0,0.0
Status,0,47,8,1,23,1575420032,0.00,260.00,39.00,0,1,0,0.0
Status,0,47,9,1,24,1575420032,0.00,156.00,9.00,0,1,0,0.0
Status,0,47,10,1,25,1575420032,0.00,213.00,30.00,0,1,0,0.0
Status,0,47,11,1,26,1575420032,0.00,300.00,5.00,0,1,0,0.0
Status,0,47,12,1,29,1575420032,0.00,352.00,73.00,0,1,0,0.0
Status,0,47,13,3,14,1598062464,0.00,0.00,0.00,0,1,0,0.0
Status,0,47,14,3,2,1599750016,0.00,205.00,18.00,0,1,0,0.0
Status,0,47,15,3,22,1600312448,0.00,97.00,26.00,0,1,0,0.0
Status,0,47,16,3,13,1600875008,0.00,236.00,5.00,0,1,0,0.0
Status,0,47,17,3,1,1602562560,0.00,215.00,78.00,0,1,0,0.0
Status,0,47,18,3,24,1603124992,0.00,334.00,16.00,0,1,0,0.0
Status,0,47,19,3,23,1603687552,0.00,18.00,42.00,0,1,0,0.0
Status,0,47,20,3,7,1604812544,0.00,0.00,0.00,0,1,0,0.0
Status,0,47,21,3,8,1605374976,0.00,25.00,46.00,0,1,0,0.0
Status,0,47,22,5,16,1561097984,22.00,120.00,37.00,0,1,0,22.0
Status,0,47,23,5,9,1561097984,19.10,144.00,33.00,0,1,0,19.1
Status,0,47,24,5,1,1561097984,0.00,95.00,14.00,0,1,0,0.0
Status,0,47,25,5,2,1561097984,0.00,158.00,69.00,0,1,0,0.0
Status,0,47,26,5,3,1561097984,0.00,112.00,48.00,0,1,0,0.0
Status,0,47,27,5,5,1561097984,0.00,230.00,59.00,0,1,0,0.0
Status,0,47,28,5,6,1561097984,0.00,127.00,37.00,0,1,0,0.0
Status,0,47,29,5,7,1561097984,0.00,163.00,24.00,0,1,0,0.0
Status,0,47,30,5,8,1561097984,0.00,29.00,30.00,0,1,0,0.0
Status,0,47,31,5,10,1561097984,0.00,174.00,35.00,0,1,0,0.0
Status,0,47,32,5,12,1561097984,0.00,319.00,5.00,0,1,0,0.0
Status,0,47,33,5,13,1561097984,0.00,14.00,40.00,0,1,0,0.0
Status,0,47,34,5,19,1561097984,0.00,30.00,41.00,0,1,0,0.0
Status,0,47,35,5,21,1561097984,0.00,222.00,25.00,0,1,0,0.0
Status,0,47,36,5,22,1561097984,0.00,253.00,78.00,0,1,0,0.0
Status,0,47,37,5,26,1561097984,0.00,233.00,4.00,0,1,0,0.0
Status,0,47,38,4,195,1575420032,0.00,104.00,28.00,0,1,0,0.0
Status,0,47,39,6,4,1575420032,0.00,201.00,17.00,0,1,0,0.0
Status,0,47,40,6,7,1575420032,0.00,0.00,0.00,0,1,0,0.0
Status,0,47,41,6,12,1575420032,0.00,323.00,25.00,0,1,0,0.0
Status,0,47,42,6,19,1575420032,0.00,147.00,64.00,0,1,0,0.0
Status,0,47,43,6,24,1575420032,0.00,291.00,13.00,0,1,0,0.0
Status,0,47,44,6,26,1575420032,0.00,80.00,23.00,0,1,0,0.0
Status,0,47,45,6,31,1575420032,0.00,243.00,28.00,0,1,0,0.0
Status,0,47,46,6,33,1575420032,0.00,25.00,44.00,0,1,0,0.0
Raw,1651496101436,414633292000000,,,-1335116686144921525,0.22944211959838867,1016.7997097596526,-89.98065920322492,35.840523218351755,29,15,0.0,16399,132919368938011,80,20.4,-163.0245819091797,1.9285000562667847,16,0.0,0.0,1.57542003E9,,,,0,,1,-0.21,16.799999999999997,0.0,0.0,,,C,
Raw,1651496101436,414633292000000,,,-1335116686144921525,0.22944211959838867,1016.7997097596526,-89.98065920322492,35.840523218351755,29,16,0.0,16399,132905310142327,70,22.0,-306.1013488769531,1.0115000009536743,16,0.0,0.0,1.56109798E9,,,,0,,5,-6.87,17.7,-1508.636474609375,35.21952438354492,,,I,
Status,0,47,0,1,12,1575420032,18.60,174.00,12.00,0,1,0,18.6
Status,0,47,1,1,13,1575420032,16.50,68.00,35.00,0,1,0,16.5
Status,0,47,2,1,15,1575420032,22.10,112.00,66.00,0,1,0,22.1
Status,0,47,3,1,2,1575420032,0.00,84.00,14.00,0,1,0,0.0
Status,0,47,4,1,5,1575420032,0.00,30.00,25.00,0,1,0,0.0
Status,0,47,5,1,10,1575420032,0.00,240.00,14.00,0,1,0,0.0
Status,0,47,6,1,18,1575420032,0.00,326.00,30.00,0,1,0,0.0
Status,0,47,7,1,20,1575420032,0.00,46.00,3.00,0,1,0,0.0
Status,0,47,8,1,23,1575420032,0.00,260.00,39.00,0,1,0,0.0
Status,0,47,9,1,24,1575420032,0.00,156.00,9.00,0,1,0,0.0
Status,0,47,10,1,25,1575420032,0.00,213.00,30.00,0,1,0,0.0
Status,0,47,11,1,26,1575420032,0.00,300.00,5.00,0,1,0,0.0
Status,0,47,12,1,29,1575420032,0.00,352.00,73.00,0,1,0,0.0
Status,0,47,13,3,14,1598062464,0.00,0.00,0.00,0,1,0,0.0
Status,0,47,14,3,2,1599750016,0.00,205.00,18.00,0,1,0,0.0
Status,0,47,15,3,22,1600312448,0.00,97.00,26.00,0,1,0,0.0
Status,0,47,16,3,13,1600875008,0.00,236.00,5.00,0,1,0,0.0
Status,0,47,17,3,1,1602562560,0.00,215.00,78.00,0,1,0,0.0
Status,0,47,18,3,24,1603124992,0.00,334.00,16.00,0,1,0,0.0
Status,0,47,19,3,23,1603687552,0.00,18.00,42.00,0,1,0,0.0
Status,0,47,20,3,7,1604812544,0.00,0.00,0.00,0,1,0,0.0
Status,0,47,21,3,8,1605374976,0.00,25.00,46.00,0,1,0,0.0
Status,0,47,22,5,16,1561097984,21.70,120.00,37.00,0,1,0,21.7
Status,0,47,23,5,9,1561097984,19.10,144.00,33.00,0,1,0,19.1
Status,0,47,24,5,1,1561097984,0.00,95.00,14.00,0,1,0,0.0
Status,0,47,25,5,2,1561097984,0.00,158.00,69.00,0,1,0,0.0
Status,0,47,26,5,3,1561097984,0.00,112.00,48.00,0,1,0,0.0
Status,0,47,27,5,5,1561097984,0.00,230.00,59.00,0,1,0,0.0
Status,0,47,28,5,6,1561097984,0.00,127.00,37.00,0,1,0,0.0
Status,0,47,29,5,7,1561097984,0.00,163.00,24.00,0,1,0,0.0
Status,0,47,30,5,8,1561097984,0.00,29.00,30.00,0,1,0,0.0
Status,0,47,31,5,10,1561097984,0.00,174.00,35.00,0,1,0,0.0
Status,0,47,32,5,12,1561097984,0.00,319.00,5.00,0,1,0,0.0
Status,0,47,33,5,13,1561097984,0.00,14.00,40.00,0,1,0,0.0
Status,0,47,34,5,19,1561097984,0.00,30.00,41.00,0,1,0,0.0
Status,0,47,35,5,21,1561097984,0.00,222.00,25.00,0,1,0,0.0
Status,0,47,36,5,22,1561097984,0.00,253.00,78.00,0,1,0,0.0
Status,0,47,37,5,26,1561097984,0.00,233.00,4.00,0,1,0,0.0
Status,0,47,38,4,195,1575420032,14.80,104.00,28.00,0,1,0,14.8
Status,0,47,39,6,4,1575420032,0.00,201.00,17.00,0,1,0,0.0
Status,0,47,40,6,7,1575420032,0.00,0.00,0.00,0,1,0,0.0
Status,0,47,41,6,12,1575420032,0.00,323.00,25.00,0,1,0,0.0
Status,0,47,42,6,19,1575420032,0.00,147.00,64.00,0,1,0,0.0
Status,0,47,43,6,24,1575420032,0.00,291.00,13.00,0,1,0,0.0
Status,0,47,44,6,26,1575420032,0.00,80.00,23.00,0,1,0,0.0
Status,0,47,45,6,31,1575420032,0.00,243.00,28.00,0,1,0,0.0
Status,0,47,46,6,33,1575420032,0.00,25.00,44.00,0,1,0,0.0
Raw,1651496102436,414634292000000,,,-1335116686144921602,0.05632829666137695,1158.2691222429276,-84.75475512044434,31.242354941403487,29,12,0.0,16399,132920354715152,92,18.6,542.8031616210938,5.127500057220459,16,0.0,0.0,1.57542003E9,,,,0,,1,-0.49,15.000000000000002,0.0,0.0,,,C,
Raw,1651496102436,414634292000000,,,-1335116686144921602,0.05632829666137695,1158.2691222429276,-84.75475512044434,31.242354941403487,29,13,0.0,16399,132920363395073,139,16.5,145.6127166748047,5.3510003089904785,16,0.0,0.0,1.57542003E9,,,,0,,1,-0.49,12.9,0.0,0.0,,,C,
Raw,1651496102436,414634292000000,,,-1335116686144921602,0.05632829666137695,1158.2691222429276,-84.75475512044434,31.242354941403487,29,15,0.0,16399,132920368938480,61,22.1,-164.84188842773438,1.0084999799728394,16,0.0,0.0,1.57542003E9,,,,0,,1,-0.49,18.5,0.0,0.0,,,C,
Raw,1651496102436,414634292000000,,,-1335116686144921602,0.05632829666137695,1158.2691222429276,-84.75475512044434,31.242354941403487,29,195,0.0,16399,132920308734336,159,14.8,-236.4684295654297,10.038500785827637,16,0.0,0.0,1.57542003E9,,,,0,,4,-0.49,11.200000000000001,0.0,0.0,,,C,
Raw,1651496102436,414634292000000,,,-1335116686144921602,0.05632829666137695,1158.2691222429276,-84.75475512044434,31.242354941403487,29,16,0.0,16399,132906310143304,70,21.7,-306.3221740722656,1.091499924659729,16,0.0,0.0,1.56109798E9,,,,0,,5,-7.16,17.4,-1508.636474609375,35.22101974487305,,,I,
Fix,NLP,17.4070129,78.5195677,437.699982,0.000000,20.000000,0.000000,1651496101093,0.0,0.0,79536891000000,1.4246753
Fix,FLP,17.4070129,78.5195678,437.699982,0.074693,20.000000,271.133362,1651496101093,0.0,0.0,79536891000000,1.4246753
Status,0,47,0,1,12,1575420032,18.60,174.00,12.00,0,1,0,18.6
Status,0,47,1,1,13,1575420032,16.50,68.00,35.00,0,1,0,16.5
Status,0,47,2,1,15,1575420032,22.10,112.00,66.00,0,1,0,22.1
Status,0,47,3,1,2,1575420032,0.00,84.00,14.00,0,1,0,0.0
Status,0,47,4,1,5,1575420032,0.00,30.00,25.00,0,1,0,0.0
Status,0,47,5,1,10,1575420032,0.00,240.00,14.00,0,1,0,0.0
Status,0,47,6,1,18,1575420032,0.00,326.00,30.00,0,1,0,0.0
Status,0,47,7,1,20,1575420032,0.00,46.00,3.00,0,1,0,0.0
Status,0,47,8,1,23,1575420032,0.00,260.00,39.00,0,1,0,0.0
Status,0,47,9,1,24,1575420032,0.00,156.00,9.00,0,1,0,0.0
Status,0,47,10,1,25,1575420032,0.00,213.00,30.00,0,1,0,0.0
Status,0,47,11,1,26,1575420032,0.00,300.00,5.00,0,1,0,0.0
Status,0,47,12,1,29,1575420032,0.00,352.00,73.00,0,1,0,0.0
Status,0,47,13,3,14,1598062464,0.00,0.00,0.00,0,1,0,0.0
Status,0,47,14,3,2,1599750016,0.00,205.00,18.00,0,1,0,0.0
Status,0,47,15,3,22,1600312448,0.00,97.00,26.00,0,1,0,0.0
Status,0,47,16,3,13,1600875008,0.00,236.00,5.00,0,1,0,0.0
Status,0,47,17,3,1,1602562560,0.00,215.00,78.00,0,1,0,0.0
Status,0,47,18,3,24,1603124992,0.00,334.00,16.00,0,1,0,0.0
Status,0,47,19,3,23,1603687552,0.00,19.00,42.00,0,1,0,0.0
Status,0,47,20,3,7,1604812544,0.00,0.00,0.00,0,1,0,0.0
Status,0,47,21,3,8,1605374976,0.00,25.00,45.00,0,1,0,0.0
Status,0,47,22,5,16,1561097984,21.70,120.00,37.00,0,1,0,21.7
Status,0,47,23,5,9,1561097984,16.90,144.00,33.00,0,1,0,16.9
Status,0,47,24,5,1,1561097984,0.00,95.00,14.00,0,1,0,0.0
Status,0,47,25,5,2,1561097984,0.00,158.00,69.00,0,1,0,0.0
Status,0,47,26,5,3,1561097984,0.00,112.00,48.00,0,1,0,0.0
Status,0,47,27,5,5,1561097984,0.00,230.00,59.00,0,1,0,0.0
Status,0,47,28,5,6,1561097984,0.00,127.00,37.00,0,1,0,0.0
Status,0,47,29,5,7,1561097984,0.00,163.00,24.00,0,1,0,0.0
Status,0,47,30,5,8,1561097984,0.00,29.00,30.00,0,1,0,0.0
Status,0,47,31,5,10,1561097984,0.00,174.00,35.00,0,1,0,0.0
Status,0,47,32,5,12,1561097984,0.00,319.00,5.00,0,1,0,0.0
Status,0,47,33,5,13,1561097984,0.00,14.00,40.00,0,1,0,0.0
Status,0,47,34,5,19,1561097984,0.00,30.00,41.00,0,1,0,0.0
Status,0,47,35,5,21,1561097984,0.00,222.00,25.00,0,1,0,0.0
Status,0,47,36,5,22,1561097984,0.00,253.00,78.00,0,1,0,0.0
Status,0,47,37,5,26,1561097984,0.00,233.00,4.00,0,1,0,0.0
Status,0,47,38,4,195,1575420032,14.80,104.00,28.00,0,1,0,14.8
Status,0,47,39,6,4,1575420032,0.00,201.00,17.00,0,1,0,0.0
Status,0,47,40,6,7,1575420032,0.00,0.00,0.00,0,1,0,0.0
Status,0,47,41,6,12,1575420032,0.00,323.00,25.00,0,1,0,0.0
Status,0,47,42,6,19,1575420032,0.00,147.00,64.00,0,1,0,0.0
Status,0,47,43,6,24,1575420032,0.00,291.00,13.00,0,1,0,0.0
Status,0,47,44,6,26,1575420032,0.00,80.00,23.00,0,1,0,0.0
Status,0,47,45,6,31,1575420032,0.00,243.00,28.00,0,1,0,0.0
Status,0,47,46,6,33,1575420032,0.00,25.00,44.00,0,1,0,0.0
Raw,1651496103436,414635292000000,,,-1335116686144921697,0.14338207244873047,931.9836972281337,-88.02366263976036,27.078517034154554,29,9,0.0,16399,132907308036290,139,16.9,-302.4718017578125,9.858499526977539,16,0.0,0.0,1.56109798E9,,,,0,,5,-7.1,12.599999999999998,-1508.6365966796875,35.22235107421875,,,I,
Status,0,47,0,1,12,1575420032,18.60,174.00,12.00,0,1,0,18.6
Status,0,47,1,1,13,1575420032,16.50,68.00,35.00,0,1,0,16.5
Status,0,47,2,1,15,1575420032,19.90,112.00,66.00,0,1,0,19.9
Status,0,47,3,1,2,1575420032,0.00,84.00,14.00,0,1,0,0.0
Status,0,47,4,1,5,1575420032,0.00,30.00,25.00,0,1,0,0.0
Status,0,47,5,1,10,1575420032,0.00,240.00,14.00,0,1,0,0.0
Status,0,47,6,1,18,1575420032,0.00,326.00,30.00,0,1,0,0.0
Status,0,47,7,1,20,1575420032,0.00,46.00,3.00,0,1,0,0.0
Status,0,47,8,1,23,1575420032,0.00,260.00,39.00,0,1,0,0.0
Status,0,47,9,1,24,1575420032,0.00,156.00,9.00,0,1,0,0.0
Status,0,47,10,1,25,1575420032,0.00,213.00,30.00,0,1,0,0.0
Status,0,47,11,1,26,1575420032,0.00,300.00,5.00,0,1,0,0.0
Status,0,47,12,1,29,1575420032,0.00,352.00,73.00,0,1,0,0.0
Status,0,47,13,3,14,1598062464,0.00,0.00,0.00,0,1,0,0.0
Status,0,47,14,3,2,1599750016,0.00,205.00,18.00,0,1,0,0.0
Status,0,47,15,3,22,1600312448,0.00,97.00,26.00,0,1,0,0.0
Status,0,47,16,3,13,1600875008,0.00,236.00,5.00,0,1,0,0.0
Status,0,47,17,3,1,1602562560,0.00,215.00,78.00,0,1,0,0.0
Status,0,47,18,3,24,1603124992,0.00,334.00,16.00,0,1,0,0.0
Status,0,47,19,3,23,1603687552,0.00,19.00,42.00,0,1,0,0.0
Status,0,47,20,3,7,1604812544,0.00,0.00,0.00,0,1,0,0.0
Status,0,47,21,3,8,1605374976,0.00,25.00,45.00,0,1,0,0.0
Status,0,47,22,5,16,1561097984,20.70,120.00,37.00,0,1,0,20.7
Status,0,47,23,5,9,1561097984,16.90,144.00,33.00,0,1,0,16.9
Status,0,47,24,5,1,1561097984,0.00,95.00,14.00,0,1,0,0.0
Status,0,47,25,5,2,1561097984,0.00,158.00,69.00,0,1,0,0.0
Status,0,47,26,5,3,1561097984,0.00,112.00,48.00,0,1,0,0.0
Status,0,47,27,5,5,1561097984,0.00,230.00,59.00,0,1,0,0.0
Status,0,47,28,5,6,1561097984,0.00,127.00,37.00,0,1,0,0.0
Status,0,47,29,5,7,1561097984,0.00,163.00,24.00,0,1,0,0.0
Status,0,47,30,5,8,1561097984,0.00,29.00,30.00,0,1,0,0.0
Status,0,47,31,5,10,1561097984,0.00,174.00,35.00,0,1,0,0.0
Status,0,47,32,5,12,1561097984,0.00,319.00,5.00,0,1,0,0.0
Status,0,47,33,5,13,1561097984,0.00,14.00,40.00,0,1,0,0.0
Status,0,47,34,5,19,1561097984,0.00,30.00,41.00,0,1,0,0.0
Status,0,47,35,5,21,1561097984,0.00,222.00,25.00,0,1,0,0.0
Status,0,47,36,5,22,1561097984,0.00,253.00,78.00,0,1,0,0.0
Status,0,47,37,5,26,1561097984,0.00,233.00,4.00,0,1,0,0.0
Status,0,47,38,4,195,1575420032,14.80,104.00,28.00,0,1,0,14.8
Status,0,47,39,6,4,1575420032,0.00,201.00,17.00,0,1,0,0.0
Status,0,47,40,6,7,1575420032,0.00,0.00,0.00,0,1,0,0.0
Status,0,47,41,6,12,1575420032,0.00,323.00,25.00,0,1,0,0.0
Status,0,47,42,6,19,1575420032,0.00,147.00,64.00,0,1,0,0.0
Status,0,47,43,6,24,1575420032,0.00,291.00,13.00,0,1,0,0.0
Status,0,47,44,6,26,1575420032,0.00,80.00,23.00,0,1,0,0.0
Status,0,47,45,6,31,1575420032,0.00,243.00,28.00,0,1,0,0.0
Status,0,47,46,6,33,1575420032,0.00,25.00,44.00,0,1,0,0.0
Fix,GPS,17.4070162,78.5195712,423.487732,0.000000,48.302483,0.000000,1651496105000,1.3376472,0.0,79540798519891,65.59099
Fix,FLP,17.4070130,78.5195676,437.699982,0.015541,20.771000,279.145721,1651496105000,0.0,0.0,79540798519891,1.4637506
Raw,1651496104436,414636292000000,,,-1335116686144921785,0.06261825561523438,964.4693927839398,-88.08110721632026,35.821322007580044,29,15,0.0,16399,132922368939533,80,19.9,-163.82382202148438,2.0185000896453857,16,0.0,0.0,1.57542003E9,,,,0,,1,-0.47,16.299999999999997,0.0,0.0,,,C,
Raw,1651496104436,414636292000000,,,-1335116686144921785,0.06261825561523438,964.4693927839398,-88.08110721632026,35.821322007580044,29,16,0.0,16399,132908310145365,80,20.7,-306.2837829589844,1.93149995803833,16,0.0,0.0,1.56109798E9,,,,0,,5,-7.13,16.4,-1508.6365966796875,35.231346130371094,,,I,
Status,1651496105000,47,0,1,12,1575420032,18.60,174.00,12.00,1,1,0,18.6
Status,1651496105000,47,1,1,13,1575420032,16.50,68.00,35.00,1,1,0,16.5
Status,1651496105000,47,2,1,15,1575420032,22.60,112.00,66.00,1,1,0,22.6
Status,1651496105000,47,3,1,2,1575420032,0.00,84.00,14.00,0,1,0,0.0
Status,1651496105000,47,4,1,5,1575420032,0.00,30.00,25.00,0,1,0,0.0
Status,1651496105000,47,5,1,10,1575420032,0.00,240.00,14.00,0,1,0,0.0
Status,1651496105000,47,6,1,18,1575420032,0.00,326.00,30.00,0,1,0,0.0
Status,1651496105000,47,7,1,20,1575420032,0.00,46.00,3.00,0,1,0,0.0
Status,1651496105000,47,8,1,23,1575420032,0.00,260.00,39.00,0,1,0,0.0
Status,1651496105000,47,9,1,24,1575420032,0.00,156.00,9.00,0,1,0,0.0
Status,1651496105000,47,10,1,25,1575420032,0.00,213.00,30.00,0,1,0,0.0
Status,1651496105000,47,11,1,26,1575420032,0.00,300.00,5.00,0,1,0,0.0
Status,1651496105000,47,12,1,29,1575420032,0.00,352.00,73.00,0,1,0,0.0
Status,1651496105000,47,13,3,14,1598062464,0.00,0.00,0.00,0,1,0,0.0
Status,1651496105000,47,14,3,2,1599750016,0.00,205.00,18.00,0,1,0,0.0
Status,1651496105000,47,15,3,22,1600312448,0.00,97.00,26.00,0,1,0,0.0
Status,1651496105000,47,16,3,13,1600875008,0.00,236.00,5.00,0,1,0,0.0
Status,1651496105000,47,17,3,1,1602562560,0.00,215.00,78.00,0,1,0,0.0
Status,1651496105000,47,18,3,24,1603124992,0.00,334.00,16.00,0,1,0,0.0
Status,1651496105000,47,19,3,23,1603687552,0.00,19.00,42.00,0,1,0,0.0
Status,1651496105000,47,20,3,7,1604812544,0.00,0.00,0.00,0,1,0,0.0
Status,1651496105000,47,21,3,8,1605374976,0.00,25.00,45.00,0,1,0,0.0
Status,1651496105000,47,22,5,16,1561097984,20.70,120.00,37.00,1,1,0,20.7
Status,1651496105000,47,23,5,9,1561097984,16.90,144.00,33.00,1,1,0,16.9
Status,1651496105000,47,24,5,1,1561097984,0.00,95.00,14.00,0,1,0,0.0
Status,1651496105000,47,25,5,2,1561097984,0.00,158.00,69.00,0,1,0,0.0
Status,1651496105000,47,26,5,3,1561097984,0.00,112.00,48.00,0,1,0,0.0
Status,1651496105000,47,27,5,5,1561097984,0.00,230.00,59.00,0,1,0,0.0
Status,1651496105000,47,28,5,6,1561097984,0.00,127.00,37.00,0,1,0,0.0
Status,1651496105000,47,29,5,7,1561097984,0.00,163.00,24.00,0,1,0,0.0
Status,1651496105000,47,30,5,8,1561097984,0.00,29.00,30.00,0,1,0,0.0
Status,1651496105000,47,31,5,10,1561097984,0.00,174.00,35.00,0,1,0,0.0
Status,1651496105000,47,32,5,12,1561097984,0.00,319.00,5.00,0,1,0,0.0
Status,1651496105000,47,33,5,13,1561097984,0.00,14.00,40.00,0,1,0,0.0
Status,1651496105000,47,34,5,19,1561097984,0.00,30.00,41.00,0,1,0,0.0
Status,1651496105000,47,35,5,21,1561097984,0.00,222.00,25.00,0,1,0,0.0
Status,1651496105000,47,36,5,22,1561097984,0.00,253.00,78.00,0,1,0,0.0
Status,1651496105000,47,37,5,26,1561097984,0.00,233.00,4.00,0,1,0,0.0
Status,1651496105000,47,38,4,195,1575420032,14.80,104.00,28.00,1,1,0,14.8
Status,1651496105000,47,39,6,4,1575420032,0.00,201.00,17.00,0,1,0,0.0
Status,1651496105000,47,40,6,7,1575420032,0.00,0.00,0.00,0,1,0,0.0
Status,1651496105000,47,41,6,12,1575420032,0.00,323.00,25.00,0,1,0,0.0
Status,1651496105000,47,42,6,19,1575420032,0.00,147.00,64.00,0,1,0,0.0
Status,1651496105000,47,43,6,24,1575420032,0.00,291.00,13.00,0,1,0,0.0
Status,1651496105000,47,44,6,26,1575420032,0.00,80.00,23.00,0,1,0,0.0
Status,1651496105000,47,45,6,31,1575420032,0.00,243.00,28.00,0,1,0,0.0
Status,1651496105000,47,46,6,33,1575420032,0.00,25.00,44.00,0,1,0,0.0
Fix,GPS,17.4070163,78.5195712,422.073608,0.000000,45.226925,0.000000,1651496106000,1.4013208,0.0,79541798519839,55.5047
Raw,1651496105436,414637292000000,,,-1335116686144921854,0.04789018630981445,563.6398564092815,-86.45874487517507,29.059330606407688,29,15,0.0,16399,132923368940049,53,22.6,-163.58595275878906,1.0084999799728394,16,0.0,0.0,1.57542003E9,,,,0,,1,-0.52,19.0,0.0,0.0,,,C,
Fix,FLP,17.4070130,78.5195677,437.699982,0.006725,21.011999,286.888947,1651496106000,0.0,0.0,79541798519839,1.4737506
Status,1651496106000,47,0,1,12,1575420032,18.60,174.00,12.00,1,1,0,18.6
Status,1651496106000,47,1,1,13,1575420032,16.50,68.00,35.00,1,1,0,16.5
Status,1651496106000,47,2,1,15,1575420032,21.90,112.00,66.00,1,1,0,21.9
Status,1651496106000,47,3,1,2,1575420032,0.00,84.00,14.00,0,1,0,0.0
Status,1651496106000,47,4,1,5,1575420032,0.00,30.00,25.00,0,1,0,0.0
Status,1651496106000,47,5,1,10,1575420032,0.00,240.00,14.00,0,1,0,0.0
Status,1651496106000,47,6,1,18,1575420032,0.00,326.00,30.00,0,1,0,0.0
Status,1651496106000,47,7,1,20,1575420032,0.00,46.00,3.00,0,1,0,0.0
Status,1651496106000,47,8,1,23,1575420032,0.00,260.00,39.00,0,1,0,0.0
Status,1651496106000,47,9,1,24,1575420032,0.00,156.00,9.00,0,1,0,0.0
Status,1651496106000,47,10,1,25,1575420032,0.00,213.00,30.00,0,1,0,0.0
Status,1651496106000,47,11,1,26,1575420032,0.00,300.00,5.00,0,1,0,0.0
Status,1651496106000,47,12,1,29,1575420032,0.00,352.00,73.00,0,1,0,0.0
Status,1651496106000,47,13,3,14,1598062464,0.00,0.00,0.00,0,1,0,0.0
Status,1651496106000,47,14,3,2,1599750016,0.00,205.00,18.00,0,1,0,0.0
Status,1651496106000,47,15,3,22,1600312448,0.00,97.00,26.00,0,1,0,0.0
Status,1651496106000,47,16,3,13,1600875008,0.00,236.00,5.00,0,1,0,0.0
Status,1651496106000,47,17,3,1,1602562560,0.00,215.00,78.00,0,1,0,0.0
Status,1651496106000,47,18,3,24,1603124992,0.00,334.00,16.00,0,1,0,0.0
Status,1651496106000,47,19,3,23,1603687552,0.00,19.00,42.00,0,1,0,0.0
Status,1651496106000,47,20,3,7,1604812544,0.00,0.00,0.00,0,1,0,0.0
Status,1651496106000,47,21,3,8,1605374976,0.00,25.00,45.00,0,1,0,0.0
Status,1651496106000,47,22,5,16,1561097984,20.70,120.00,37.00,1,1,0,20.7
Status,1651496106000,47,23,5,9,1561097984,16.90,144.00,33.00,1,1,0,16.9
Status,1651496106000,47,24,5,1,1561097984,0.00,95.00,14.00,0,1,0,0.0
Status,1651496106000,47,25,5,2,1561097984,0.00,158.00,69.00,0,1,0,0.0
Status,1651496106000,47,26,5,3,1561097984,0.00,112.00,48.00,0,1,0,0.0
Status,1651496106000,47,27,5,5,1561097984,0.00,230.00,59.00,0,1,0,0.0
Status,1651496106000,47,28,5,6,1561097984,0.00,127.00,37.00,0,1,0,0.0
Status,1651496106000,47,29,5,7,1561097984,0.00,163.00,24.00,0,1,0,0.0
Status,1651496106000,47,30,5,8,1561097984,0.00,29.00,30.00,0,1,0,0.0
Status,1651496106000,47,31,5,10,1561097984,0.00,174.00,35.00,0,1,0,0.0
Status,1651496106000,47,32,5,12,1561097984,0.00,319.00,5.00,0,1,0,0.0
Status,1651496106000,47,33,5,13,1561097984,0.00,14.00,40.00,0,1,0,0.0
Status,1651496106000,47,34,5,19,1561097984,0.00,30.00,41.00,0,1,0,0.0
Status,1651496106000,47,35,5,21,1561097984,0.00,222.00,25.00,0,1,0,0.0
Status,1651496106000,47,36,5,22,1561097984,0.00,253.00,78.00,0,1,0,0.0
Status,1651496106000,47,37,5,26,1561097984,0.00,233.00,4.00,0,1,0,0.0
Status,1651496106000,47,38,4,195,1575420032,14.80,104.00,28.00,1,1,0,14.8
Status,1651496106000,47,39,6,4,1575420032,0.00,201.00,17.00,0,1,0,0.0
Status,1651496106000,47,40,6,7,1575420032,0.00,0.00,0.00,0,1,0,0.0
Status,1651496106000,47,41,6,12,1575420032,0.00,323.00,25.00,0,1,0,0.0
Status,1651496106000,47,42,6,19,1575420032,0.00,147.00,64.00,0,1,0,0.0
Status,1651496106000,47,43,6,24,1575420032,0.00,291.00,13.00,0,1,0,0.0
Status,1651496106000,47,44,6,26,1575420032,0.00,80.00,23.00,0,1,0,0.0
Status,1651496106000,47,45,6,31,1575420032,0.00,243.00,28.00,0,1,0,0.0
Status,1651496106000,47,46,6,33,1575420032,0.00,25.00,44.00,0,1,0,0.0
Fix,GPS,17.4070163,78.5195712,422.553955,0.000000,44.275887,0.000000,1651496107000,1.4684005,0.0,79542798519839,49.4342
Fix,FLP,17.4070130,78.5195677,437.699982,0.002044,21.503000,308.384979,1651496107000,0.0,0.0,79542798519839,1.4837506
Raw,1651496106436,414638292000000,,,-1335116686144921945,0.016696453094482422,497.43824638426304,-86.10201462733875,26.038286032701286,29,15,0.0,16399,132924368940762,61,21.9,-162.0065155029297,1.088499903678894,16,0.0,0.0,1.57542003E9,,,,0,,1,-0.43,18.299999999999997,0.0,0.0,,,C,
Status,1651496107000,47,0,1,12,1575420032,18.60,174.00,12.00,1,1,0,18.6
Status,1651496107000,47,1,1,13,1575420032,16.30,68.00,35.00,1,1,0,16.3
Status,1651496107000,47,2,1,15,1575420032,23.20,112.00,66.00,1,1,0,23.2
Status,1651496107000,47,3,1,2,1575420032,0.00,84.00,14.00,0,1,0,0.0
Status,1651496107000,47,4,1,5,1575420032,0.00,30.00,25.00,0,1,0,0.0
Status,1651496107000,47,5,1,10,1575420032,0.00,240.00,14.00,0,1,0,0.0
Status,1651496107000,47,6,1,18,1575420032,0.00,326.00,30.00,0,1,0,0.0
Status,1651496107000,47,7,1,20,1575420032,0.00,46.00,3.00,0,1,0,0.0
Status,1651496107000,47,8,1,23,1575420032,0.00,260.00,39.00,0,1,0,0.0
Status,1651496107000,47,9,1,24,1575420032,0.00,156.00,9.00,0,1,0,0.0
Status,1651496107000,47,10,1,25,1575420032,0.00,213.00,30.00,0,1,0,0.0
Status,1651496107000,47,11,1,26,1575420032,0.00,300.00,5.00,0,1,0,0.0
Status,1651496107000,47,12,1,29,1575420032,0.00,352.00,73.00,0,1,0,0.0
Status,1651496107000,47,13,3,14,1598062464,0.00,0.00,0.00,0,1,0,0.0
Status,1651496107000,47,14,3,2,1599750016,0.00,205.00,18.00,0,1,0,0.0
Status,1651496107000,47,15,3,22,1600312448,0.00,97.00,26.00,0,1,0,0.0
Status,1651496107000,47,16,3,13,1600875008,0.00,236.00,5.00,0,1,0,0.0
Status,1651496107000,47,17,3,1,1602562560,0.00,215.00,78.00,0,1,0,0.0
Status,1651496107000,47,18,3,24,1603124992,0.00,334.00,16.00,0,1,0,0.0
Status,1651496107000,47,19,3,23,1603687552,0.00,19.00,42.00,0,1,0,0.0
Status,1651496107000,47,20,3,7,1604812544,0.00,0.00,0.00,0,1,0,0.0
Status,1651496107000,47,21,3,8,1605374976,0.00,25.00,45.00,0,1,0,0.0
Status,1651496107000,47,22,5,29,1561097984,16.50,111.00,33.00,0,1,0,16.5
Status,1651496107000,47,23,5,16,1561097984,20.10,120.00,37.00,1,1,0,20.1
Status,1651496107000,47,24,5,9,1561097984,16.90,144.00,33.00,1,1,0,16.9
Status,1651496107000,47,25,5,1,1561097984,0.00,95.00,14.00,0,1,0,0.0
Status,1651496107000,47,26,5,2,1561097984,0.00,158.00,69.00,0,1,0,0.0
Status,1651496107000,47,27,5,3,1561097984,0.00,112.00,48.00,0,1,0,0.0
Status,1651496107000,47,28,5,5,1561097984,0.00,230.00,59.00,0,1,0,0.0
Status,1651496107000,47,29,5,6,1561097984,0.00,127.00,37.00,0,1,0,0.0
Status,1651496107000,47,30,5,7,1561097984,0.00,163.00,24.00,0,1,0,0.0
Status,1651496107000,47,31,5,8,1561097984,0.00,29.00,30.00,0,1,0,0.0
Status,1651496107000,47,32,5,10,1561097984,0.00,174.00,35.00,0,1,0,0.0
Status,1651496107000,47,33,5,12,1561097984,0.00,319.00,5.00,0,1,0,0.0
Status,1651496107000,47,34,5,13,1561097984,0.00,14.00,40.00,0,1,0,0.0
Status,1651496107000,47,35,5,19,1561097984,0.00,30.00,41.00,0,1,0,0.0
Status,1651496107000,47,36,5,21,1561097984,0.00,222.00,25.00,0,1,0,0.0
Status,1651496107000,47,37,5,22,1561097984,0.00,254.00,78.00,0,1,0,0.0
Status,1651496107000,47,38,4,195,1575420032,16.80,104.00,28.00,1,1,0,16.8
Status,1651496107000,47,39,6,4,1575420032,0.00,201.00,17.00,0,1,0,0.0
Status,1651496107000,47,40,6,7,1575420032,0.00,0.00,0.00,0,1,0,0.0
Status,1651496107000,47,41,6,12,1575420032,0.00,323.00,25.00,0,1,0,0.0
Status,1651496107000,47,42,6,19,1575420032,0.00,147.00,64.00,0,1,0,0.0
Status,1651496107000,47,43,6,24,1575420032,0.00,291.00,13.00,0,1,0,0.0
Status,1651496107000,47,44,6,26,1575420032,0.00,80.00,23.00,0,1,0,0.0
Status,1651496107000,47,45,6,31,1575420032,0.00,243.00,28.00,0,1,0,0.0
Status,1651496107000,47,46,6,33,1575420032,0.00,25.00,44.00,0,1,0,0.0
Fix,GPS,17.4070164,78.5195713,421.352295,0.000000,41.014389,0.000000,1651496108000,1.436802,0.0,79543798519475,42.565826
Raw,1651496107436,414639292000000,,,-1335116686144922021,0.1697859764099121,459.08772153779864,-82.90084577306132,27.252851685235107,29,13,0.0,16399,132925363392706,139,16.3,146.2692413330078,4.6010003089904785,16,0.0,0.0,1.57542003E9,,,,0,,1,-0.86,12.700000000000001,0.0,0.0,,,C,
Raw,1651496107436,414639292000000,,,-1335116686144922021,0.1697859764099121,459.08772153779864,-82.90084577306132,27.252851685235107,29,15,0.0,16399,132925368941178,53,23.2,-163.47177124023438,0.9284999966621399,16,0.0,0.0,1.57542003E9,,,,0,,1,-0.86,19.599999999999998,0.0,0.0,,,C,
Raw,1651496107436,414639292000000,,,-1335116686144922021,0.1697859764099121,459.08772153779864,-82.90084577306132,27.252851685235107,29,195,0.0,16399,132925308738342,122,16.8,-238.21913146972656,4.608500003814697,16,0.0,0.0,1.57542003E9,,,,0,,4,-0.86,13.200000000000001,0.0,0.0,,,C,
Raw,1651496107436,414639292000000,,,-1335116686144922021,0.1697859764099121,459.08772153779864,-82.90084577306132,27.252851685235107,29,29,0.0,16399,132911357980076,1710,16.5,268.0775451660156,10.142000198364258,16,0.0,0.0,1.56109798E9,,,,0,,5,-8.65,12.2,-1508.636962890625,35.25867462158203,,,I,
Raw,1651496107436,414639292000000,,,-1335116686144922021,0.1697859764099121,459.08772153779864,-82.90084577306132,27.252851685235107,29,16,0.0,16399,132911310148415,92,20.1,-305.78448486328125,2.68149995803833,16,0.0,0.0,1.56109798E9,,,,0,,5,-8.65,15.8,-1508.636962890625,35.25867462158203,,,I,
Fix,FLP,17.4070131,78.5195678,437.699982,0.004575,21.479000,41.937279,1651496108000,0.0,0.0,79543798519475,1.4937506
Fix,NLP,17.4070129,78.5195726,437.699982,0.000000,20.000000,0.000000,1651496106522,0.0,0.0,79542320000000,1.8438781
Status,1651496108000,47,0,1,12,1575420032,18.60,174.00,12.00,1,1,0,18.6
Status,1651496108000,47,1,1,13,1575420032,16.30,68.00,35.00,1,1,0,16.3
Status,1651496108000,47,2,1,15,1575420032,24.60,112.00,66.00,1,1,0,24.6
Status,1651496108000,47,3,1,2,1575420032,0.00,84.00,14.00,0,1,0,0.0
Status,1651496108000,47,4,1,5,1575420032,0.00,30.00,25.00,0,1,0,0.0
Status,1651496108000,47,5,1,10,1575420032,0.00,240.00,14.00,0,1,0,0.0
Status,1651496108000,47,6,1,18,1575420032,0.00,326.00,30.00,0,1,0,0.0
Status,1651496108000,47,7,1,20,1575420032,0.00,46.00,3.00,0,1,0,0.0
Status,1651496108000,47,8,1,23,1575420032,0.00,260.00,39.00,0,1,0,0.0
Status,1651496108000,47,9,1,24,1575420032,0.00,156.00,9.00,0,1,0,0.0
Status,1651496108000,47,10,1,25,1575420032,0.00,213.00,30.00,0,1,0,0.0
Status,1651496108000,47,11,1,26,1575420032,0.00,300.00,5.00,0,1,0,0.0
Status,1651496108000,47,12,1,29,1575420032,0.00,352.00,73.00,0,1,0,0.0
Status,1651496108000,47,13,3,14,1598062464,0.00,0.00,0.00,0,1,0,0.0
Status,1651496108000,47,14,3,2,1599750016,0.00,205.00,18.00,0,1,0,0.0
Status,1651496108000,47,15,3,22,1600312448,0.00,97.00,26.00,0,1,0,0.0
Status,1651496108000,47,16,3,13,1600875008,0.00,236.00,5.00,0,1,0,0.0
Status,1651496108000,47,17,3,1,1602562560,0.00,215.00,78.00,0,1,0,0.0
Status,1651496108000,47,18,3,24,1603124992,0.00,334.00,16.00,0,1,0,0.0
Status,1651496108000,47,19,3,23,1603687552,0.00,19.00,42.00,0,1,0,0.0
Status,1651496108000,47,20,3,7,1604812544,0.00,0.00,0.00,0,1,0,0.0
Status,1651496108000,47,21,3,8,1605374976,0.00,25.00,45.00,0,1,0,0.0
Status,1651496108000,47,22,5,29,1561097984,16.50,111.00,33.00,0,1,0,16.5
Status,1651496108000,47,23,5,16,1561097984,20.10,120.00,37.00,1,1,0,20.1
Status,1651496108000,47,24,5,9,1561097984,16.90,144.00,33.00,1,1,0,16.9
Status,1651496108000,47,25,5,1,1561097984,0.00,95.00,14.00,0,1,0,0.0
Status,1651496108000,47,26,5,2,1561097984,0.00,158.00,69.00,0,1,0,0.0
Status,1651496108000,47,27,5,3,1561097984,0.00,112.00,48.00,0,1,0,0.0
Status,1651496108000,47,28,5,5,1561097984,0.00,230.00,59.00,0,1,0,0.0
Status,1651496108000,47,29,5,6,1561097984,0.00,127.00,37.00,0,1,0,0.0
Status,1651496108000,47,30,5,7,1561097984,0.00,163.00,24.00,0,1,0,0.0
Status,1651496108000,47,31,5,8,1561097984,0.00,29.00,30.00,0,1,0,0.0
Status,1651496108000,47,32,5,10,1561097984,0.00,174.00,35.00,0,1,0,0.0
Status,1651496108000,47,33,5,12,1561097984,0.00,319.00,5.00,0,1,0,0.0
Status,1651496108000,47,34,5,13,1561097984,0.00,14.00,40.00,0,1,0,0.0
Status,1651496108000,47,35,5,19,1561097984,0.00,30.00,41.00,0,1,0,0.0
Status,1651496108000,47,36,5,21,1561097984,0.00,222.00,25.00,0,1,0,0.0
Status,1651496108000,47,37,5,22,1561097984,0.00,254.00,78.00,0,1,0,0.0
Status,1651496108000,47,38,4,195,1575420032,16.80,104.00,28.00,1,1,0,16.8
Status,1651496108000,47,39,6,4,1575420032,0.00,201.00,17.00,0,1,0,0.0
Status,1651496108000,47,40,6,7,1575420032,0.00,0.00,0.00,0,1,0,0.0
Status,1651496108000,47,41,6,12,1575420032,0.00,323.00,25.00,0,1,0,0.0
Status,1651496108000,47,42,6,19,1575420032,0.00,147.00,64.00,0,1,0,0.0
Status,1651496108000,47,43,6,24,1575420032,0.00,291.00,13.00,0,1,0,0.0
Status,1651496108000,47,44,6,26,1575420032,0.00,80.00,23.00,0,1,0,0.0
Status,1651496108000,47,45,6,31,1575420032,0.00,243.00,28.00,0,1,0,0.0
Status,1651496108000,47,46,6,33,1575420032,0.00,25.00,44.00,0,1,0,0.0
Fix,GPS,17.4070161,78.5195714,421.295410,0.000000,23.027288,0.000000,1651496109000,1.2744018,0.0,79544798519891,37.403973
Fix,FLP,17.4070133,78.5195722,437.699982,0.099983,21.290001,85.950157,1651496109000,0.0,0.0,79544798519891,1.8686633
Raw,1651496108436,414640292000000,,,-1335116686144922116,0.18978452682495117,407.8006895724684,-85.75422331294654,26.802952938213583,29,15,0.0,16399,132926368941794,40,24.6,-163.01507568359375,0.8585000038146973,16,0.0,0.0,1.57542003E9,,,,0,,1,-2.3,21.0,0.0,0.0,,,C,
Status,1651496109000,47,0,1,12,1575420032,18.10,174.00,12.00,0,1,0,18.1
Status,1651496109000,47,1,1,13,1575420032,16.30,68.00,35.00,1,1,0,16.3
Status,1651496109000,47,2,1,15,1575420032,23.40,112.00,66.00,1,1,0,23.4
Status,1651496109000,47,3,1,2,1575420032,0.00,84.00,14.00,0,1,0,0.0
Status,1651496109000,47,4,1,5,1575420032,0.00,30.00,25.00,0,1,0,0.0
Status,1651496109000,47,5,1,10,1575420032,0.00,240.00,14.00,0,1,0,0.0
Status,1651496109000,47,6,1,18,1575420032,0.00,326.00,30.00,0,1,0,0.0
Status,1651496109000,47,7,1,20,1575420032,0.00,46.00,3.00,0,1,0,0.0
Status,1651496109000,47,8,1,23,1575420032,0.00,260.00,39.00,0,1,0,0.0
Status,1651496109000,47,9,1,24,1575420032,0.00,156.00,9.00,0,1,0,0.0
Status,1651496109000,47,10,1,25,1575420032,0.00,213.00,30.00,0,1,0,0.0
Status,1651496109000,47,11,1,26,1575420032,0.00,300.00,5.00,0,1,0,0.0
Status,1651496109000,47,12,1,29,1575420032,0.00,352.00,73.00,0,1,0,0.0
Status,1651496109000,47,13,3,14,1598062464,0.00,0.00,0.00,0,1,0,0.0
Status,1651496109000,47,14,3,2,1599750016,0.00,205.00,18.00,0,1,0,0.0
Status,1651496109000,47,15,3,22,1600312448,0.00,97.00,26.00,0,1,0,0.0
Status,1651496109000,47,16,3,13,1600875008,0.00,236.00,5.00,0,1,0,0.0
Status,1651496109000,47,17,3,1,1602562560,0.00,215.00,78.00,0,1,0,0.0
Status,1651496109000,47,18,3,24,1603124992,0.00,334.00,16.00,0,1,0,0.0
Status,1651496109000,47,19,3,23,1603687552,0.00,19.00,42.00,0,1,0,0.0
Status,1651496109000,47,20,3,7,1604812544,0.00,0.00,0.00,0,1,0,0.0
Status,1651496109000,47,21,3,8,1605374976,0.00,25.00,45.00,0,1,0,0.0
Status,1651496109000,47,22,5,29,1561097984,16.50,111.00,33.00,0,1,0,16.5
Status,1651496109000,47,23,5,16,1561097984,20.60,120.00,37.00,1,1,0,20.6
Status,1651496109000,47,24,5,9,1561097984,16.90,144.00,33.00,1,1,0,16.9
Status,1651496109000,47,25,5,1,1561097984,0.00,95.00,14.00,0,1,0,0.0
Status,1651496109000,47,26,5,2,1561097984,0.00,158.00,69.00,0,1,0,0.0
Status,1651496109000,47,27,5,3,1561097984,0.00,112.00,48.00,0,1,0,0.0
Status,1651496109000,47,28,5,5,1561097984,0.00,230.00,59.00,0,1,0,0.0
Status,1651496109000,47,29,5,6,1561097984,0.00,127.00,37.00,0,1,0,0.0
Status,1651496109000,47,30,5,7,1561097984,0.00,163.00,24.00,0,1,0,0.0
Status,1651496109000,47,31,5,8,1561097984,0.00,29.00,30.00,0,1,0,0.0
Status,1651496109000,47,32,5,10,1561097984,0.00,174.00,35.00,0,1,0,0.0
Status,1651496109000,47,33,5,12,1561097984,0.00,319.00,5.00,0,1,0,0.0
Status,1651496109000,47,34,5,13,1561097984,0.00,14.00,40.00,0,1,0,0.0
Status,1651496109000,47,35,5,19,1561097984,0.00,30.00,41.00,0,1,0,0.0
Status,1651496109000,47,36,5,21,1561097984,0.00,222.00,25.00,0,1,0,0.0
Status,1651496109000,47,37,5,22,1561097984,0.00,254.00,78.00,0,1,0,0.0
Status,1651496109000,47,38,4,195,1575420032,16.80,104.00,28.00,1,1,0,16.8
Status,1651496109000,47,39,6,4,1575420032,0.00,201.00,17.00,0,1,0,0.0
Status,1651496109000,47,40,6,7,1575420032,0.00,0.00,0.00,0,1,0,0.0
Status,1651496109000,47,41,6,12,1575420032,0.00,323.00,25.00,0,1,0,0.0
Status,1651496109000,47,42,6,19,1575420032,0.00,147.00,64.00,0,1,0,0.0
Status,1651496109000,47,43,6,24,1575420032,0.00,291.00,13.00,0,1,0,0.0
Status,1651496109000,47,44,6,26,1575420032,0.00,80.00,23.00,0,1,0,0.0
Status,1651496109000,47,45,6,31,1575420032,0.00,243.00,28.00,0,1,0,0.0
Status,1651496109000,47,46,6,33,1575420032,0.00,25.00,44.00,0,1,0,0.0
Fix,GPS,17.4070161,78.5195714,421.171509,0.000000,22.712582,0.000000,1651496110000,1.264911,0.0,79545798519891,32.721104
Raw,1651496109436,414641292000000,,,-1335116686144922184,0.5683150291442871,345.3355166129768,-85.03124492088077,26.55160667156437,29,12,0.0,16399,132927354702529,106,18.1,544.0020141601562,5.877500534057617,16,0.0,0.0,1.57542003E9,,,,0,,1,-1.05,14.500000000000002,0.0,0.0,,,C,
Raw,1651496109436,414641292000000,,,-1335116686144922184,0.5683150291442871,345.3355166129768,-85.03124492088077,26.55160667156437,29,15,0.0,16399,132927368942346,53,23.4,-164.4613037109375,0.9284999966621399,16,0.0,0.0,1.57542003E9,,,,0,,1,-1.05,19.799999999999997,0.0,0.0,,,C,
Raw,1651496109436,414641292000000,,,-1335116686144922184,0.5683150291442871,345.3355166129768,-85.03124492088077,26.55160667156437,29,16,0.0,16399,132913310150534,80,20.6,-307.3111877441406,1.93149995803833,16,0.0,0.0,1.56109798E9,,,,0,,5,-7.81,16.3,-1508.6363525390625,35.27939224243164,,,I,
Fix,FLP,17.4070133,78.5195727,437.699982,0.082800,21.160999,85.691528,1651496110000,0.0,0.0,79545798519891,1.8786633
Status,1651496110000,47,0,1,12,1575420032,18.10,174.00,12.00,1,1,0,18.1
Status,1651496110000,47,1,1,13,1575420032,16.30,68.00,35.00,1,1,0,16.3
Status,1651496110000,47,2,1,15,1575420032,23.40,112.00,66.00,1,1,0,23.4
Status,1651496110000,47,3,1,2,1575420032,0.00,84.00,14.00,0,1,0,0.0
Status,1651496110000,47,4,1,5,1575420032,0.00,30.00,25.00,0,1,0,0.0
Status,1651496110000,47,5,1,10,1575420032,0.00,240.00,14.00,0,1,0,0.0
Status,1651496110000,47,6,1,18,1575420032,0.00,326.00,30.00,0,1,0,0.0
Status,1651496110000,47,7,1,20,1575420032,0.00,46.00,3.00,0,1,0,0.0
Status,1651496110000,47,8,1,23,1575420032,0.00,260.00,39.00,0,1,0,0.0
Status,1651496110000,47,9,1,24,1575420032,0.00,156.00,9.00,0,1,0,0.0
Status,1651496110000,47,10,1,25,1575420032,0.00,213.00,30.00,0,1,0,0.0
Status,1651496110000,47,11,1,26,1575420032,0.00,300.00,5.00,0,1,0,0.0
Status,1651496110000,47,12,1,29,1575420032,0.00,352.00,73.00,0,1,0,0.0
Status,1651496110000,47,13,3,14,1598062464,0.00,0.00,0.00,0,1,0,0.0
Status,1651496110000,47,14,3,2,1599750016,0.00,205.00,18.00,0,1,0,0.0
Status,1651496110000,47,15,3,22,1600312448,0.00,97.00,26.00,0,1,0,0.0
Status,1651496110000,47,16,3,13,1600875008,0.00,236.00,5.00,0,1,0,0.0
Status,1651496110000,47,17,3,1,1602562560,0.00,215.00,78.00,0,1,0,0.0
Status,1651496110000,47,18,3,24,1603124992,0.00,334.00,16.00,0,1,0,0.0
Status,1651496110000,47,19,3,23,1603687552,0.00,19.00,42.00,0,1,0,0.0
Status,1651496110000,47,20,3,7,1604812544,0.00,0.00,0.00,0,1,0,0.0
Status,1651496110000,47,21,3,8,1605374976,0.00,25.00,45.00,0,1,0,0.0
Status,1651496110000,47,22,5,29,1561097984,16.50,111.00,33.00,0,1,0,16.5
Status,1651496110000,47,23,5,16,1561097984,20.60,120.00,37.00,1,1,0,20.6
Status,1651496110000,47,24,5,9,1561097984,16.90,144.00,33.00,0,1,0,16.9
Status,1651496110000,47,25,5,1,1561097984,0.00,95.00,14.00,0,1,0,0.0
Status,1651496110000,47,26,5,2,1561097984,0.00,158.00,69.00,0,1,0,0.0
Status,1651496110000,47,27,5,3,1561097984,0.00,112.00,48.00,0,1,0,0.0
Status,1651496110000,47,28,5,5,1561097984,0.00,230.00,59.00,0,1,0,0.0
Status,1651496110000,47,29,5,6,1561097984,0.00,127.00,37.00,0,1,0,0.0
Status,1651496110000,47,30,5,7,1561097984,0.00,163.00,24.00,0,1,0,0.0
Status,1651496110000,47,31,5,8,1561097984,0.00,29.00,30.00,0,1,0,0.0
Status,1651496110000,47,32,5,10,1561097984,0.00,174.00,35.00,0,1,0,0.0
Status,1651496110000,47,33,5,12,1561097984,0.00,319.00,5.00,0,1,0,0.0
Status,1651496110000,47,34,5,13,1561097984,0.00,14.00,40.00,0,1,0,0.0
Status,1651496110000,47,35,5,19,1561097984,0.00,30.00,41.00,0,1,0,0.0
Status,1651496110000,47,36,5,21,1561097984,0.00,222.00,25.00,0,1,0,0.0
Status,1651496110000,47,37,5,22,1561097984,0.00,254.00,78.00,0,1,0,0.0
Status,1651496110000,47,38,4,195,1575420032,16.80,104.00,28.00,1,1,0,16.8
Status,1651496110000,47,39,6,4,1575420032,0.00,201.00,17.00,0,1,0,0.0
Status,1651496110000,47,40,6,7,1575420032,0.00,0.00,0.00,0,1,0,0.0
Status,1651496110000,47,41,6,12,1575420032,0.00,323.00,25.00,0,1,0,0.0
Status,1651496110000,47,42,6,19,1575420032,0.00,147.00,64.00,0,1,0,0.0
Status,1651496110000,47,43,6,24,1575420032,0.00,291.00,13.00,0,1,0,0.0
Status,1651496110000,47,44,6,26,1575420032,0.00,80.00,23.00,0,1,0,0.0
Status,1651496110000,47,45,6,31,1575420032,0.00,243.00,28.00,0,1,0,0.0
Status,1651496110000,47,46,6,33,1575420032,0.00,25.00,44.00,0,1,0,0.0
Fix,GPS,17.4070161,78.5195714,421.085327,0.000000,25.445807,0.000000,1651496111000,1.3505925,0.0,79546798519786,33.114296
Raw,1651496110436,414642292000000,,,-1335116686144922287,0.3107185363769531,307.46200354769826,-88.75324502678339,26.918147478383446,29,15,0.0,16399,132928368942881,53,23.4,-162.38711547851562,0.9284999966621399,16,0.0,0.0,1.57542003E9,,,,0,,1,-1.1,19.799999999999997,0.0,0.0,,,C,
Fix,FLP,17.4070133,78.5195729,437.699982,0.059455,21.035999,85.704033,1651496111000,0.0,0.0,79546798519786,1.8886633
Status,1651496111000,47,0,1,12,1575420032,18.10,174.00,12.00,1,1,0,18.1
Status,1651496111000,47,1,1,13,1575420032,16.30,68.00,35.00,1,1,0,16.3
Status,1651496111000,47,2,1,15,1575420032,24.00,112.00,66.00,1,1,0,24.0
Status,1651496111000,47,3,1,2,1575420032,0.00,84.00,14.00,0,1,0,0.0
Status,1651496111000,47,4,1,5,1575420032,0.00,30.00,25.00,0,1,0,0.0
Status,1651496111000,47,5,1,10,1575420032,0.00,240.00,14.00,0,1,0,0.0
Status,1651496111000,47,6,1,18,1575420032,0.00,326.00,30.00,0,1,0,0.0
Status,1651496111000,47,7,1,20,1575420032,0.00,46.00,3.00,0,1,0,0.0
Status,1651496111000,47,8,1,23,1575420032,0.00,260.00,39.00,0,1,0,0.0
Status,1651496111000,47,9,1,24,1575420032,0.00,156.00,9.00,0,1,0,0.0
Status,1651496111000,47,10,1,25,1575420032,0.00,213.00,30.00,0,1,0,0.0
Status,1651496111000,47,11,1,26,1575420032,0.00,300.00,5.00,0,1,0,0.0
Status,1651496111000,47,12,1,29,1575420032,0.00,352.00,73.00,0,1,0,0.0
Status,1651496111000,47,13,3,14,1598062464,0.00,0.00,0.00,0,1,0,0.0
Status,1651496111000,47,14,3,2,1599750016,0.00,205.00,18.00,0,1,0,0.0
Status,1651496111000,47,15,3,22,1600312448,0.00,97.00,26.00,0,1,0,0.0
Status,1651496111000,47,16,3,13,1600875008,0.00,236.00,5.00,0,1,0,0.0
Status,1651496111000,47,17,3,1,1602562560,0.00,215.00,78.00,0,1,0,0.0
Status,1651496111000,47,18,3,24,1603124992,0.00,334.00,16.00,0,1,0,0.0
Status,1651496111000,47,19,3,23,1603687552,0.00,19.00,42.00,0,1,0,0.0
Status,1651496111000,47,20,3,7,1604812544,0.00,0.00,0.00,0,1,0,0.0
Status,1651496111000,47,21,3,8,1605374976,0.00,25.00,45.00,0,1,0,0.0
Status,1651496111000,47,22,5,29,1561097984,16.50,111.00,33.00,0,1,0,16.5
Status,1651496111000,47,23,5,16,1561097984,20.60,120.00,37.00,1,1,0,20.6
Status,1651496111000,47,24,5,9,1561097984,16.90,144.00,33.00,0,1,0,16.9
Status,1651496111000,47,25,5,1,1561097984,0.00,95.00,14.00,0,1,0,0.0
Status,1651496111000,47,26,5,2,1561097984,0.00,158.00,69.00,0,1,0,0.0
Status,1651496111000,47,27,5,3,1561097984,0.00,112.00,48.00,0,1,0,0.0
Status,1651496111000,47,28,5,5,1561097984,0.00,230.00,59.00,0,1,0,0.0
Status,1651496111000,47,29,5,6,1561097984,0.00,127.00,37.00,0,1,0,0.0
Status,1651496111000,47,30,5,7,1561097984,0.00,163.00,24.00,0,1,0,0.0
Status,1651496111000,47,31,5,8,1561097984,0.00,29.00,30.00,0,1,0,0.0
Status,1651496111000,47,32,5,10,1561097984,0.00,174.00,35.00,0,1,0,0.0
Status,1651496111000,47,33,5,12,1561097984,0.00,319.00,5.00,0,1,0,0.0
Status,1651496111000,47,34,5,13,1561097984,0.00,14.00,40.00,0,1,0,0.0
Status,1651496111000,47,35,5,19,1561097984,0.00,30.00,41.00,0,1,0,0.0
Status,1651496111000,47,36,5,21,1561097984,0.00,222.00,25.00,0,1,0,0.0
Status,1651496111000,47,37,5,22,1561097984,0.00,254.00,78.00,0,1,0,0.0
Status,1651496111000,47,38,4,195,1575420032,16.80,104.00,28.00,1,1,0,16.8
Status,1651496111000,47,39,6,4,1575420032,0.00,201.00,17.00,0,1,0,0.0
Status,1651496111000,47,40,6,7,1575420032,0.00,0.00,0.00,0,1,0,0.0
Status,1651496111000,47,41,6,12,1575420032,0.00,323.00,25.00,0,1,0,0.0
Status,1651496111000,47,42,6,19,1575420032,0.00,147.00,64.00,0,1,0,0.0
Status,1651496111000,47,43,6,24,1575420032,0.00,291.00,13.00,0,1,0,0.0
Status,1651496111000,47,44,6,26,1575420032,0.00,80.00,23.00,0,1,0,0.0
Status,1651496111000,47,45,6,31,1575420032,0.00,243.00,28.00,0,1,0,0.0
Status,1651496111000,47,46,6,33,1575420032,0.00,25.00,44.00,0,1,0,0.0
